{
  "StoreList": [
    {
      "id": 1,
      "date": "2020-08-03",
      "title": "디이롱",
      "local" : "서울",
      "imagePath":"https://search.pstatic.net/common/?src=https%3A%2F%2Fldb-phinf.pstatic.net%2F20191008_28%2F1570535117912smOIs_JPEG%2F24FKEqthMpHaFRnGicYNFA5_.jpg",
      "favorite": false,
      "likeCount": 246,
      "view": 14620,
      "commentCount": 350,
      "address" : "서울 마포구 동교로30길 17 1층",
      "telephone": "0507-1330-6995",
      "hours": "11:30 - 20:00 (정기 휴무: 매주 월요일)"
    },
    {
      "id": 2,
      "date": "2022-01-03",
      "title": "신발원",
      "local" : "부산",
      "imagePath":"https://search.pstatic.net/common/?src=https%3A%2F%2Fldb-phinf.pstatic.net%2F20221031_114%2F1667175233317eG8mM_JPEG%2FKakaoTalk_20221031_090406250_03.jpg",
      "favorite": false,
      "likeCount": 412,
      "view": 11256,
      "commentCount": 56,
      "address" : "부산 동구 대영로 243번길 62",
      "telephone": "051-467-0177",
      "hours": "11:00 - 20:00 (정기 휴무: 매주 화요일)",
      "tv": "백종원의 3대 천왕 51회, 백종원의 3대 천왕 23회, 6시 내고향 5664회, 생생 정보통 617회",
      "blog": "https://blog.naver.com/shinfayuen1951-",
      "instagram": "https://www.instagram.com/official_shinfayuen",
      "youtube": "https://www.youtube.com/c/shinfayuentv"
    },
    {
      "id": 3,
      "date": "2022-01-05",
      "title": "탱탱만두",
      "local" : "군산",
      "imagePath":"https://search.pstatic.net/common/?src=http%3A%2F%2Fblogfiles.naver.net%2FMjAyMTA1MjFfMzkg%2FMDAxNjIxNjA2MjI0OTgy.eGy4lNZ1fRM34bxIVhVQXhReV6byEUlsJU5w1sKunpgg.ECknAl5_EH2Ic2nTDRWQ9TEapqGnTkeS5Ywc-CNOBEkg.JPEG.suhyunjoa2%2FEE8CBD45-F113-4DB4-B64A-8FF21531B8EA.jpg",
      "favorite": false,
      "likeCount": 200,
      "view": 11000,
      "commentCount": 308,
      "address" : "전북 군산시 동리2길 1-1",
      "telephone": "063-471-0802",
      "hours": "09:00 - 20:00 (토: - 16:00) (정기 휴무: 매주 일요일)"
    },
    {
      "id": 4,
      "date": "2022-10-04",
      "title": "동승루",
      "local" : "원주",
      "imagePath":"https://search.pstatic.net/common/?src=https%3A%2F%2Fldb-phinf.pstatic.net%2F20220821_190%2F1661093984164w26Bn_JPEG%2F%25B1%25BA%25B8%25B8%25B5%25CE.jpg",
      "favorite": false,
      "likeCount": 198,
      "view": 13050,
      "commentCount": 331,
      "address" : "강원 원주시 이화4길 30 이화4길30",
      "telephone": "033-742-8166",
      "hours": "11:30 - 15:00 (정기 휴무: 매주 화요일)",
      "tv": "생활의달인 623회, 18.05.14.2018년 5월 14일 만두"
    },
    {
      "id": 5,
      "date": "2022-11-10",
      "title": "더호쟈",
      "local" : "서울",
      "imagePath":"https://search.pstatic.net/common/?src=https%3A%2F%2Fldb-phinf.pstatic.net%2F20230212_235%2F1676176161173xK2BW_JPEG%2F%25B5%25F5%25BC%25B6.jpg",
      "favorite": false,
      "likeCount": 10,
      "view": 205,
      "commentCount": 1,
      "address" : "서울 동대문구 장한로 37 1층 101호",
      "telephone": "0507-1316-7158",
      "hours": "11:00 - 22:00"
    },
    {
      "id": 6,
      "date": "2023-04-21",
      "title": "딤딤섬",
      "local" : "대구",
      "imagePath":"https://search.pstatic.net/common/?src=https%3A%2F%2Fldb-phinf.pstatic.net%2F20190527_277%2F1558921191198ExxLn_JPEG%2F3IDqB6eWqC1ykYbh12pNbYOF.jpg",
      "favorite": false,
      "likeCount": 5,
      "view": 312,
      "commentCount": 2,
      "address" : "대구 동구 동부로 149 대구신세계백화점 9층",
      "telephone": "0507-1310-6985",
      "hours": "11:00 - 21:30",
      "blog": "https://dimdimsum.modoo.at/",
      "instagram": "https://www.instagram.com/dimdimsumkr"
    },
    {
      "id": 7,
      "date": "2023-06-04",
      "title": "광명만두",
      "local" : "천안",
      "imagePath":"https://search.pstatic.net/common/?src=http%3A%2F%2Fblogfiles.naver.net%2FMjAyMzA2MDNfMjQ5%2FMDAxNjg1NzU0NTI5MzMw.aYe0qFKUoXJg-r--rSpw0N3n6nn658jf8TbpOn3x6xIg.4rKHXOajAoVS6QyBwRtosxK7b5t5ne67KOH5xG4Cok0g.JPEG.hyunoq%2F20230602%25A3%25DF155845.jpg",
      "favorite": false,
      "likeCount": 13,
      "view": 360,
      "commentCount": 5,
      "address" : "충남 천안시 서북구 두정중4길 1",
      "telephone": "041-552-2289",
      "hours": "10:30 - 21:00 (정기 휴무: 매주 일요일)"
    },
    {
      "id": 8,
      "date": "2023-08-10",
      "title": "덕발장",
      "local" : "천안",
      "imagePath":"https://search.pstatic.net/common/?src=https%3A%2F%2Fldb-phinf.pstatic.net%2F20200726_119%2F1595769681422RjaB0_JPEG%2F_5uZ31vNyuUhiWxrZkKnoGlL.jpg",
      "favorite": false,
      "likeCount": 8,
      "view": 253,
      "commentCount": 1,
      "address" : "경기 성남시 중원구 도촌로7번길 3-13 1층",
      "telephone": "0507-1390-3016",
      "hours": "11:00 - 21:00 (토, 일: - 15:00) (정기 휴무: 매주 일요일)",
      "instagram": "http://instagram.com/duckbaljang"
    }
  ]
}
